STATION,NAME,LATITUDE,LONGITUDE,ELEVATION
US1ORCB0040,"CLATSKANIE 8.8 SW, OR US",46.0069167,-123.3245355,194.2
USR0000OMLL,"MILLER OREGON, OR US",46.0228,-123.2711,332.2
US1ORCB0041,"CLATSKANIE 6.1 W, OR US",46.1157,-123.3313,4.6
US1ORCB0013,"CLATSKANIE 3.0 NE, OR US",46.131337,-123.15711,44.5
USC00351643,"CLATSKANIE, OR US",46.1081,-123.2058,6.7
